[{"istat":"71040","nome":"Poggio Imperiale","slug":"poggio-imperiale","lat":41.8233236,"lon":15.3654175},{"istat":"74020","nome":"Villa Castelli","slug":"villa-castelli","lat":40.584527,"lon":17.474605},{"istat":"110009","nome":"Trani","slug":"trani","lat":41.275088,"lon":16.4162585},{"istat":"72043","nome":"Terlizzi","slug":"terlizzi","lat":41.1302336,"lon":16.5424713},{"istat":"72020","nome":"Corato","slug":"corato","lat":41.1527614,"lon":16.4114643},{"istat":"71051","nome":"San Severo","slug":"san-severo","lat":41.6897761,"lon":15.3776211},{"istat":"75030","nome":"Galatone","slug":"galatone","lat":40.142922,"lon":18.070424},{"istat":"71058","nome":"Troia","slug":"troia","lat":41.363128,"lon":15.312347},{"istat":"110002","nome":"Barletta","slug":"barletta","lat":41.3214976,"lon":16.2868696},{"istat":"74007","nome":"Fasano","slug":"fasano","lat":40.834432,"lon":17.358399},{"istat":"75083","nome":"Surbo","slug":"surbo","lat":40.396028,"lon":18.133422},{"istat":"72021","nome":"Gioia del Colle","slug":"gioia-del-colle","lat":40.796728,"lon":16.92359},{"istat":"71050","nome":"San Paolo di Civitate","slug":"san-paolo-di-civitate","lat":41.738336,"lon":15.260241},{"istat":"73014","nome":"Maruggio","slug":"maruggio","lat":40.3222604,"lon":17.5723658},{"istat":"71041","nome":"Rignano Garganico","slug":"rignano-garganico","lat":41.6770126,"lon":15.5875171},{"istat":"71008","nome":"Cagnano Varano","slug":"cagnano-varano","lat":41.8284115,"lon":15.7735741},{"istat":"75088","nome":"Tricase","slug":"tricase","lat":39.93042,"lon":18.355332},{"istat":"75097","nome":"Porto Cesareo","slug":"porto-cesareo","lat":40.262824,"lon":17.898418},{"istat":"74009","nome":"Latiano","slug":"latiano","lat":40.5537831,"lon":17.718222},{"istat":"74009","nome":"Latiano","slug":"latiano","lat":40.5537831,"lon":17.718222},{"istat":"71047","nome":"San Marco in Lamis","slug":"san-marco-in-lamis","lat":41.713138,"lon":15.63985},{"istat":"71063","nome":"Ordona","slug":"ordona","lat":41.315529,"lon":15.627355},{"istat":"75053","nome":"Neviano","slug":"neviano","lat":40.107722,"lon":18.114025},{"istat":"75018","nome":"Castrignano de' Greci","slug":"castrignano-de-greci","lat":40.1738974,"lon":18.2970106},{"istat":"110003","nome":"Bisceglie","slug":"bisceglie","lat":41.2407788,"lon":16.5019124},{"istat":"73022","nome":"Pulsano","slug":"pulsano","lat":40.3846927,"lon":17.3556699},{"istat":"72037","nome":"Rutigliano","slug":"rutigliano","lat":41.0111589,"lon":17.0054792},{"istat":"72047","nome":"Turi","slug":"turi","lat":40.917331,"lon":17.021191},{"istat":"75044","nome":"Melissano","slug":"melissano","lat":39.9710645,"lon":18.1257786},{"istat":"74001","nome":"Brindisi","slug":"brindisi","lat":40.6375408,"lon":17.9454957},{"istat":"75059","nome":"Parabita","slug":"parabita","lat":40.051921,"lon":18.129526},{"istat":"75008","nome":"Bagnolo del Salento","slug":"bagnolo-del-salento","lat":40.150624,"lon":18.35263},{"istat":"73008","nome":"Grottaglie","slug":"grottaglie","lat":40.5361927,"lon":17.4342206},{"istat":"72032","nome":"Noicàttaro","slug":"noicattaro","lat":41.0322873,"lon":16.9877123},{"istat":"72032","nome":"Noicàttaro","slug":"noicattaro","lat":41.0322873,"lon":16.9877123},{"istat":"75034","nome":"Guagnano","slug":"guagnano","lat":40.401227,"lon":17.949018},{"istat":"73010","nome":"Leporano","slug":"leporano","lat":40.383922,"lon":17.334904},{"istat":"75074","nome":"Seclì","slug":"secli","lat":40.1301258,"lon":18.1005072},{"istat":"72001","nome":"Acquaviva delle Fonti","slug":"acquaviva-delle-fonti","lat":40.897829,"lon":16.842487},{"istat":"75094","nome":"Zollino","slug":"zollino","lat":40.206006,"lon":18.2505893},{"istat":"71016","nome":"Castelluccio Valmaggiore","slug":"castelluccio-valmaggiore","lat":41.342327,"lon":15.199045},{"istat":"73020","nome":"Palagianello","slug":"palagianello","lat":40.6118909,"lon":16.9751176},{"istat":"75052","nome":"Nardò","slug":"nardo","lat":40.1762608,"lon":18.0306371},{"istat":"75077","nome":"Specchia","slug":"specchia","lat":39.93712,"lon":18.297631},{"istat":"74017","nome":"San Vito dei Normanni","slug":"san-vito-dei-normanni","lat":40.6562478,"lon":17.7037516},{"istat":"75012","nome":"Cannole","slug":"cannole","lat":40.166225,"lon":18.36603},{"istat":"74011","nome":"Oria","slug":"oria","lat":40.497327,"lon":17.64131},{"istat":"72041","nome":"Santeramo in Colle","slug":"santeramo-in-colle","lat":40.793027,"lon":16.755286},{"istat":"72002","nome":"Adelfia","slug":"adelfia","lat":41.0042654,"lon":16.8716526},{"istat":"75070","nome":"Sannicola","slug":"sannicola","lat":40.0943258,"lon":18.0637476},{"istat":"75006","nome":"Aradeo","slug":"aradeo","lat":40.130922,"lon":18.129625},{"istat":"75051","nome":"Muro Leccese","slug":"muro-leccese","lat":40.102323,"lon":18.33813},{"istat":"75051","nome":"Muro Leccese","slug":"muro-leccese","lat":40.102323,"lon":18.33813},{"istat":"71042","nome":"Rocchetta Sant'Antonio","slug":"rocchetta-santantonio","lat":41.103524,"lon":15.461754},{"istat":"75080","nome":"Sternatia","slug":"sternatia","lat":40.222125,"lon":18.225226},{"istat":"75016","nome":"Casarano","slug":"casarano","lat":40.0108197,"lon":18.1617652},{"istat":"75063","nome":"Racale","slug":"racale","lat":39.963119,"lon":18.093826},{"istat":"71054","nome":"Stornara","slug":"stornara","lat":41.288625,"lon":15.7680575},{"istat":"73004","nome":"Crispiano","slug":"crispiano","lat":40.6052497,"lon":17.2313031},{"istat":"75005","nome":"Andrano","slug":"andrano","lat":39.9830189,"lon":18.3822022},{"istat":"75028","nome":"Gagliano del Capo","slug":"gagliano-del-capo","lat":39.844218,"lon":18.369534},{"istat":"74013","nome":"San Donaci","slug":"san-donaci","lat":40.4493805,"lon":17.9226065},{"istat":"71002","nome":"Alberona","slug":"alberona","lat":41.432728,"lon":15.123042},{"istat":"110005","nome":"Margherita di Savoia","slug":"margherita-di-savoia","lat":41.374235,"lon":16.150166},{"istat":"75055","nome":"Novoli","slug":"novoli","lat":40.378527,"lon":18.04922},{"istat":"71005","nome":"Ascoli Satriano","slug":"ascoli-satriano","lat":41.2061199,"lon":15.5616103},{"istat":"71044","nome":"Roseto Valfortore","slug":"roseto-valfortore","lat":41.372427,"lon":15.096142},{"istat":"71017","nome":"Castelnuovo della Daunia","slug":"castelnuovo-della-daunia","lat":41.582631,"lon":15.12084},{"istat":"75054","nome":"Nociglia","slug":"nociglia","lat":40.039222,"lon":18.326031},{"istat":"75067","nome":"Sanarica","slug":"sanarica","lat":40.089123,"lon":18.348731},{"istat":"75068","nome":"San Cesario di Lecce","slug":"san-cesario-di-lecce","lat":40.3029611,"lon":18.159865},{"istat":"110007","nome":"San Ferdinando di Puglia","slug":"san-ferdinando-di-puglia","lat":41.302632,"lon":16.070465},{"istat":"74003","nome":"Ceglie Messapica","slug":"ceglie-messapica","lat":40.6460444,"lon":17.5170566},{"istat":"74003","nome":"Ceglie Messapica","slug":"ceglie-messapica","lat":40.6460444,"lon":17.5170566},{"istat":"75025","nome":"Cursi","slug":"cursi","lat":40.149624,"lon":18.314829},{"istat":"73007","nome":"Ginosa","slug":"ginosa","lat":40.5797514,"lon":16.7562077},{"istat":"110008","nome":"Spinazzola","slug":"spinazzola","lat":40.9691675,"lon":16.088007},{"istat":"75014","nome":"Carmiano","slug":"carmiano","lat":40.344826,"lon":18.043021},{"istat":"74015","nome":"San Pancrazio Salentino","slug":"san-pancrazio-salentino","lat":40.4191334,"lon":17.8393854},{"istat":"71053","nome":"Serracapriola","slug":"serracapriola","lat":41.811937,"lon":15.160238},{"istat":"71038","nome":"Peschici","slug":"peschici","lat":41.9469256,"lon":16.0147884},{"istat":"74012","nome":"Ostuni","slug":"ostuni","lat":40.727631,"lon":17.576406},{"istat":"75009","nome":"Botrugno","slug":"botrugno","lat":40.064722,"lon":18.32443},{"istat":"75081","nome":"Supersano","slug":"supersano","lat":40.017721,"lon":18.243229},{"istat":"75090","nome":"Ugento","slug":"ugento","lat":39.926319,"lon":18.157428},{"istat":"75007","nome":"Arnesano","slug":"arnesano","lat":40.3351996,"lon":18.0916278},{"istat":"72031","nome":"Noci","slug":"noci","lat":40.7946798,"lon":17.1235566},{"istat":"71021","nome":"Chieuti","slug":"chieuti","lat":41.844637,"lon":15.165937},{"istat":"74018","nome":"Torchiarolo","slug":"torchiarolo","lat":40.484029,"lon":18.051619},{"istat":"72008","nome":"Binetto","slug":"binetto","lat":41.0241649,"lon":16.7095806},{"istat":"75092","nome":"Veglie","slug":"veglie","lat":40.335126,"lon":17.965219},{"istat":"71003","nome":"Anzano di Puglia","slug":"anzano-di-puglia","lat":41.122523,"lon":15.28445},{"istat":"110004","nome":"Canosa di Puglia","slug":"canosa-di-puglia","lat":41.219631,"lon":16.067466},{"istat":"110004","nome":"Canosa di Puglia","slug":"canosa-di-puglia","lat":41.219631,"lon":16.067466},{"istat":"71039","nome":"Pietramontecorvino","slug":"pietramontecorvino","lat":41.541631,"lon":15.127541},{"istat":"74008","nome":"Francavilla Fontana","slug":"francavilla-fontana","lat":40.5301622,"lon":17.5826774},{"istat":"74008","nome":"Francavilla Fontana","slug":"francavilla-fontana","lat":40.5301622,"lon":17.5826774},{"istat":"71019","nome":"Celle di San Vito","slug":"celle-di-san-vito","lat":41.3259364,"lon":15.180998},{"istat":"72019","nome":"Conversano","slug":"conversano","lat":40.9685142,"lon":17.1150442},{"istat":"72019","nome":"Conversano","slug":"conversano","lat":40.9685142,"lon":17.1150442},{"istat":"75021","nome":"Collepasso","slug":"collepasso","lat":40.07302,"lon":18.1630729},{"istat":"72048","nome":"Valenzano","slug":"valenzano","lat":41.045333,"lon":16.885086},{"istat":"75023","nome":"Corigliano d'Otranto","slug":"corigliano-dotranto","lat":40.159624,"lon":18.259428},{"istat":"73013","nome":"Martina Franca","slug":"martina-franca","lat":40.7042378,"lon":17.3399908},{"istat":"73016","nome":"Monteiasi","slug":"monteiasi","lat":40.4997254,"lon":17.3810068},{"istat":"75042","nome":"Matino","slug":"matino","lat":40.0325103,"lon":18.1338533},{"istat":"110010","nome":"Trinitapoli","slug":"trinitapoli","lat":41.3588527,"lon":16.0874365},{"istat":"75058","nome":"Palmariggi","slug":"palmariggi","lat":40.1313217,"lon":18.3811757},{"istat":"71052","nome":"Sant'Agata di Puglia","slug":"santagata-di-puglia","lat":41.151824,"lon":15.380251},{"istat":"73025","nome":"San Marzano di San Giuseppe","slug":"san-marzano-di-san-giuseppe","lat":40.454425,"lon":17.505607},{"istat":"72022","nome":"Giovinazzo","slug":"giovinazzo","lat":41.1874839,"lon":16.6716802},{"istat":"72022","nome":"Giovinazzo","slug":"giovinazzo","lat":41.1874839,"lon":16.6716802},{"istat":"75033","nome":"Giurdignano","slug":"giurdignano","lat":40.121524,"lon":18.432732},{"istat":"71014","nome":"Casalvecchio di Puglia","slug":"casalvecchio-di-puglia","lat":41.5953731,"lon":15.111733},{"istat":"72029","nome":"Molfetta","slug":"molfetta","lat":41.1992456,"lon":16.5968279},{"istat":"73029","nome":"Statte","slug":"statte","lat":40.563225,"lon":17.209799},{"istat":"71049","nome":"San Nicandro Garganico","slug":"san-nicandro-garganico","lat":41.8384462,"lon":15.5653375},{"istat":"72018","nome":"Cellamare","slug":"cellamare","lat":41.019333,"lon":16.928288},{"istat":"71015","nome":"Castelluccio dei Sauri","slug":"castelluccio-dei-sauri","lat":41.3039147,"lon":15.4792258},{"istat":"71031","nome":"Mattinata","slug":"mattinata","lat":41.710141,"lon":16.051559},{"istat":"71001","nome":"Accadia","slug":"accadia","lat":41.158824,"lon":15.33145},{"istat":"72033","nome":"Palo del Colle","slug":"palo-del-colle","lat":41.057532,"lon":16.700782},{"istat":"75038","nome":"Lizzanello","slug":"lizzanello","lat":40.304127,"lon":18.222525},{"istat":"72015","nome":"Casamassima","slug":"casamassima","lat":40.957131,"lon":16.920388},{"istat":"71043","nome":"Rodi Garganico","slug":"rodi-garganico","lat":41.928745,"lon":15.881052},{"istat":"71043","nome":"Rodi Garganico","slug":"rodi-garganico","lat":41.928745,"lon":15.881052},{"istat":"110001","nome":"Andria","slug":"andria","lat":41.2275731,"lon":16.2954806},{"istat":"75085","nome":"Taviano","slug":"taviano","lat":39.983519,"lon":18.086826},{"istat":"71020","nome":"Cerignola","slug":"cerignola","lat":41.2648121,"lon":15.8996651},{"istat":"72010","nome":"Bitetto","slug":"bitetto","lat":41.0414078,"lon":16.7486991},{"istat":"73002","nome":"Carosino","slug":"carosino","lat":40.4737747,"lon":17.4084036},{"istat":"75069","nome":"San Donato di Lecce","slug":"san-donato-di-lecce","lat":40.268126,"lon":18.184225},{"istat":"75056","nome":"Ortelle","slug":"ortelle","lat":40.0338964,"lon":18.3911204},{"istat":"75032","nome":"Giuggianello","slug":"giuggianello","lat":40.094423,"lon":18.368931},{"istat":"71013","nome":"Casalnuovo Monterotaro","slug":"casalnuovo-monterotaro","lat":41.620232,"lon":15.103839},{"istat":"73012","nome":"Manduria","slug":"manduria","lat":40.401825,"lon":17.633511},{"istat":"75078","nome":"Spongano","slug":"spongano","lat":40.017822,"lon":18.365632},{"istat":"75076","nome":"Soleto","slug":"soleto","lat":40.1889656,"lon":18.2088685},{"istat":"75087","nome":"Trepuzzi","slug":"trepuzzi","lat":40.4054719,"lon":18.0706204},{"istat":"75026","nome":"Cutrofiano","slug":"cutrofiano","lat":40.126323,"lon":18.201627},{"istat":"75082","nome":"Surano","slug":"surano","lat":40.028322,"lon":18.345131},{"istat":"75047","nome":"Minervino di Lecce","slug":"minervino-di-lecce","lat":40.088424,"lon":18.420432},{"istat":"71056","nome":"Torremaggiore","slug":"torremaggiore","lat":41.6874769,"lon":15.292956},{"istat":"72003","nome":"Alberobello","slug":"alberobello","lat":40.7841242,"lon":17.2377031},{"istat":"71062","nome":"Volturino","slug":"volturino","lat":41.477229,"lon":15.124241},{"istat":"75075","nome":"Sogliano Cavour","slug":"sogliano-cavour","lat":40.148823,"lon":18.195226},{"istat":"75039","nome":"Maglie","slug":"maglie","lat":40.1184626,"lon":18.2988529},{"istat":"75002","nome":"Alessano","slug":"alessano","lat":39.8896785,"lon":18.3312082},{"istat":"73024","nome":"San Giorgio Ionico","slug":"san-giorgio-ionico","lat":40.456624,"lon":17.378704},{"istat":"73023","nome":"Roccaforzata","slug":"roccaforzata","lat":40.437424,"lon":17.389605},{"istat":"72044","nome":"Toritto","slug":"toritto","lat":40.9982301,"lon":16.6797789},{"istat":"75019","nome":"Castrignano del Capo","slug":"castrignano-del-capo","lat":39.832318,"lon":18.351233},{"istat":"75061","nome":"Poggiardo","slug":"poggiardo","lat":40.054223,"lon":18.379132},{"istat":"75064","nome":"Ruffano","slug":"ruffano","lat":39.9840916,"lon":18.2474756},{"istat":"75037","nome":"Leverano","slug":"leverano","lat":40.2894249,"lon":17.9994144},{"istat":"74016","nome":"San Pietro Vernotico","slug":"san-pietro-vernotico","lat":40.491529,"lon":17.998918},{"istat":"110006","nome":"Minervino Murge","slug":"minervino-murge","lat":41.0850517,"lon":16.0777763},{"istat":"75050","nome":"Morciano di Leuca","slug":"morciano-di-leuca","lat":39.847818,"lon":18.312432},{"istat":"72006","nome":"Bari","slug":"bari","lat":41.1257843,"lon":16.8620293},{"istat":"72006","nome":"Bari","slug":"bari","lat":41.1257843,"lon":16.8620293},{"istat":"75049","nome":"Montesano Salentino","slug":"montesano-salentino","lat":39.975621,"lon":18.321431},{"istat":"75045","nome":"Melpignano","slug":"melpignano","lat":40.1570806,"lon":18.2930785},{"istat":"71018","nome":"Celenza Valfortore","slug":"celenza-valfortore","lat":41.56173,"lon":14.978837},{"istat":"73019","nome":"Mottola","slug":"mottola","lat":40.633225,"lon":17.037195},{"istat":"71059","nome":"Vico del Gargano","slug":"vico-del-gargano","lat":41.898344,"lon":15.957554},{"istat":"71026","nome":"Isole Tremiti","slug":"isole-tremiti","lat":42.1148003,"lon":15.4871239},{"istat":"71023","nome":"Faeto","slug":"faeto","lat":41.325426,"lon":15.159844},{"istat":"71011","nome":"Carlantino","slug":"carlantino","lat":41.5921177,"lon":14.9767652},{"istat":"71004","nome":"Apricena","slug":"apricena","lat":41.783938,"lon":15.443744},{"istat":"75015","nome":"Carpignano Salentino","slug":"carpignano-salentino","lat":40.1977814,"lon":18.3408272},{"istat":"72011","nome":"Bitonto","slug":"bitonto","lat":41.1084971,"lon":16.691548},{"istat":"72011","nome":"Bitonto","slug":"bitonto","lat":41.1084971,"lon":16.691548},{"istat":"75065","nome":"Salice Salentino","slug":"salice-salentino","lat":40.3856618,"lon":17.9637483},{"istat":"75086","nome":"Tiggiano","slug":"tiggiano","lat":39.905819,"lon":18.364433},{"istat":"72024","nome":"Grumo Appula","slug":"grumo-appula","lat":41.013531,"lon":16.708483},{"istat":"71061","nome":"Volturara Appula","slug":"volturara-appula","lat":41.4957884,"lon":15.0520334},{"istat":"72040","nome":"Sannicandro di Bari","slug":"sannicandro-di-bari","lat":41.0005205,"lon":16.7976967},{"istat":"73001","nome":"Avetrana","slug":"avetrana","lat":40.3499423,"lon":17.7273737},{"istat":"73005","nome":"Faggiano","slug":"faggiano","lat":40.419823,"lon":17.386605},{"istat":"75010","nome":"Calimera","slug":"calimera","lat":40.2500221,"lon":18.2807272},{"istat":"71035","nome":"Orsara di Puglia","slug":"orsara-di-puglia","lat":41.281626,"lon":15.264447},{"istat":"74002","nome":"Carovigno","slug":"carovigno","lat":40.7071852,"lon":17.656848},{"istat":"71046","nome":"San Giovanni Rotondo","slug":"san-giovanni-rotondo","lat":41.7069106,"lon":15.7288455},{"istat":"75084","nome":"Taurisano","slug":"taurisano","lat":39.956619,"lon":18.214129},{"istat":"73021","nome":"Palagiano","slug":"palagiano","lat":40.578224,"lon":17.037395},{"istat":"75046","nome":"Miggiano","slug":"miggiano","lat":39.95972,"lon":18.311631},{"istat":"72016","nome":"Cassano delle Murge","slug":"cassano-delle-murge","lat":40.8910105,"lon":16.7686188},{"istat":"74004","nome":"Cellino San Marco","slug":"cellino-san-marco","lat":40.472228,"lon":17.966318},{"istat":"71029","nome":"Manfredonia","slug":"manfredonia","lat":41.6254728,"lon":15.9095926},{"istat":"72034","nome":"Poggiorsini","slug":"poggiorsini","lat":40.917126,"lon":16.254774},{"istat":"73011","nome":"Lizzano","slug":"lizzano","lat":40.391023,"lon":17.447607},{"istat":"74014","nome":"San Michele Salentino","slug":"san-michele-salentino","lat":40.6303856,"lon":17.6335762},{"istat":"71025","nome":"Ischitella","slug":"ischitella","lat":41.904344,"lon":15.899453},{"istat":"75048","nome":"Monteroni di Lecce","slug":"monteroni-di-lecce","lat":40.324398,"lon":18.09759},{"istat":"75001","nome":"Acquarica del Capo","slug":"acquarica-del-capo","lat":39.911119,"lon":18.24543},{"istat":"74010","nome":"Mesagne","slug":"mesagne","lat":40.5597541,"lon":17.8085464},{"istat":"71034","nome":"Motta Montecorvino","slug":"motta-montecorvino","lat":41.5074716,"lon":15.1145425},{"istat":"71033","nome":"Monte Sant'Angelo","slug":"monte-santangelo","lat":41.70544,"lon":15.967657},{"istat":"71022","nome":"Deliceto","slug":"deliceto","lat":41.223026,"lon":15.38585},{"istat":"75062","nome":"Presicce","slug":"presicce","lat":39.899119,"lon":18.261731},{"istat":"75089","nome":"Tuglie","slug":"tuglie","lat":40.073821,"lon":18.098125},{"istat":"71028","nome":"Lucera","slug":"lucera","lat":41.5082727,"lon":15.3376465},{"istat":"72017","nome":"Castellana Grotte","slug":"castellana-grotte","lat":40.886431,"lon":17.165495},{"istat":"75060","nome":"Patù","slug":"patu","lat":39.841218,"lon":18.338933},{"istat":"71036","nome":"Orta Nova","slug":"orta-nova","lat":41.32993,"lon":15.710656},{"istat":"74006","nome":"Erchie","slug":"erchie","lat":40.4360421,"lon":17.7346286},{"istat":"71024","nome":"Foggia","slug":"foggia","lat":41.4620482,"lon":15.5432595},{"istat":"72004","nome":"Altamura","slug":"altamura","lat":40.8543354,"lon":16.566605},{"istat":"75057","nome":"Otranto","slug":"otranto","lat":40.1456661,"lon":18.490757},{"istat":"74005","nome":"Cisternino","slug":"cisternino","lat":40.7429852,"lon":17.425745},{"istat":"72035","nome":"Polignano a Mare","slug":"polignano-a-mare","lat":40.9944463,"lon":17.2224879},{"istat":"75011","nome":"Campi Salentina","slug":"campi-salentina","lat":40.3984955,"lon":18.0183191},{"istat":"73017","nome":"Montemesola","slug":"montemesola","lat":40.5637601,"lon":17.3393651},{"istat":"75071","nome":"San Pietro in Lama","slug":"san-pietro-in-lama","lat":40.308426,"lon":18.128623},{"istat":"75013","nome":"Caprarica di Lecce","slug":"caprarica-di-lecce","lat":40.260598,"lon":18.2457216},{"istat":"73015","nome":"Massafra","slug":"massafra","lat":40.5888311,"lon":17.1169895},{"istat":"73015","nome":"Massafra","slug":"massafra","lat":40.5888311,"lon":17.1169895},{"istat":"75022","nome":"Copertino","slug":"copertino","lat":40.2716808,"lon":18.0502517},{"istat":"71055","nome":"Stornarella","slug":"stornarella","lat":41.2563799,"lon":15.7297876},{"istat":"72039","nome":"Sammichele di Bari","slug":"sammichele-di-bari","lat":40.8879866,"lon":16.9494555},{"istat":"72038","nome":"Ruvo di Puglia","slug":"ruvo-di-puglia","lat":41.1171985,"lon":16.4845354},{"istat":"72028","nome":"Mola di Bari","slug":"mola-di-bari","lat":41.0613232,"lon":17.0917111},{"istat":"75004","nome":"Alliste","slug":"alliste","lat":39.948618,"lon":18.088826},{"istat":"75024","nome":"Corsano","slug":"corsano","lat":39.8893157,"lon":18.3661816},{"istat":"71060","nome":"Vieste","slug":"vieste","lat":41.8827595,"lon":16.1791791},{"istat":"75003","nome":"Alezio","slug":"alezio","lat":40.061321,"lon":18.058224},{"istat":"75073","nome":"Scorrano","slug":"scorrano","lat":40.091623,"lon":18.299629},{"istat":"75027","nome":"Diso","slug":"diso","lat":40.0093028,"lon":18.392467},{"istat":"75079","nome":"Squinzano","slug":"squinzano","lat":40.436528,"lon":18.04182},{"istat":"72046","nome":"Triggiano","slug":"triggiano","lat":41.063448,"lon":16.9216976},{"istat":"73006","nome":"Fragagnano","slug":"fragagnano","lat":40.431924,"lon":17.472207},{"istat":"71006","nome":"Biccari","slug":"biccari","lat":41.3961004,"lon":15.1944383},{"istat":"75043","nome":"Melendugno","slug":"melendugno","lat":40.2717007,"lon":18.3369115},{"istat":"74019","nome":"Torre Santa Susanna","slug":"torre-santa-susanna","lat":40.465627,"lon":17.735612},{"istat":"75072","nome":"Santa Cesarea Terme","slug":"santa-cesarea-terme","lat":40.036323,"lon":18.456834},{"istat":"71064","nome":"Zapponeta","slug":"zapponeta","lat":41.4569644,"lon":15.9565008},{"istat":"71032","nome":"Monteleone di Puglia","slug":"monteleone-di-puglia","lat":41.165424,"lon":15.258048},{"istat":"75041","nome":"Martignano","slug":"martignano","lat":40.237425,"lon":18.255227},{"istat":"75040","nome":"Martano","slug":"martano","lat":40.2036212,"lon":18.3019803},{"istat":"75029","nome":"Galatina","slug":"galatina","lat":40.1742781,"lon":18.1678388},{"istat":"71048","nome":"San Marco la Catola","slug":"san-marco-la-catola","lat":41.524829,"lon":15.005938},{"istat":"72014","nome":"Capurso","slug":"capurso","lat":41.0477337,"lon":16.9204693},{"istat":"73018","nome":"Monteparano","slug":"monteparano","lat":40.444024,"lon":17.415105},{"istat":"73003","nome":"Castellaneta","slug":"castellaneta","lat":40.630424,"lon":16.9346775},{"istat":"73027","nome":"Taranto","slug":"taranto","lat":40.4712427,"lon":17.2432278},{"istat":"75036","nome":"Lequile","slug":"lequile","lat":40.305826,"lon":18.140223},{"istat":"72036","nome":"Putignano","slug":"putignano","lat":40.8492021,"lon":17.1226371},{"istat":"72025","nome":"Locorotondo","slug":"locorotondo","lat":40.75523,"lon":17.3265},{"istat":"75017","nome":"Castri di Lecce","slug":"castri-di-lecce","lat":40.273826,"lon":18.263327},{"istat":"72023","nome":"Gravina in Puglia","slug":"gravina-in-puglia","lat":40.819725,"lon":16.422779},{"istat":"73028","nome":"Torricella","slug":"torricella","lat":40.3540623,"lon":17.4993924},{"istat":"72012","nome":"Bitritto","slug":"bitritto","lat":41.044532,"lon":16.825185},{"istat":"75093","nome":"Vernole","slug":"vernole","lat":40.289527,"lon":18.303527},{"istat":"71037","nome":"Panni","slug":"panni","lat":41.222025,"lon":15.274648},{"istat":"72027","nome":"Modugno","slug":"modugno","lat":41.0825639,"lon":16.7805515},{"istat":"75035","nome":"Lecce","slug":"lecce","lat":40.3570373,"lon":18.1718482},{"istat":"72030","nome":"Monopoli","slug":"monopoli","lat":40.9522369,"lon":17.299948},{"istat":"73026","nome":"Sava","slug":"sava","lat":40.403424,"lon":17.558409},{"istat":"73026","nome":"Sava","slug":"sava","lat":40.403424,"lon":17.558409},{"istat":"73009","nome":"Laterza","slug":"laterza","lat":40.629524,"lon":16.799689},{"istat":"75020","nome":"Cavallino","slug":"cavallino","lat":40.312527,"lon":18.200425},{"istat":"75066","nome":"Salve","slug":"salve","lat":39.861318,"lon":18.293332},{"istat":"75031","nome":"Gallipoli","slug":"gallipoli","lat":40.05672,"lon":17.996423},{"istat":"75096","nome":"Castro","slug":"castro","lat":40.007022,"lon":18.425733},{"istat":"75095","nome":"San Cassiano","slug":"san-cassiano","lat":40.0562867,"lon":18.3339359},{"istat":"75091","nome":"Uggiano La Chiesa","slug":"uggiano-la-chiesa","lat":40.101724,"lon":18.449333},{"istat":"71007","nome":"Bovino","slug":"bovino","lat":41.249926,"lon":15.341249},{"istat":"71027","nome":"Lesina","slug":"lesina","lat":41.8619097,"lon":15.3532657},{"istat":"71012","nome":"Carpino","slug":"carpino","lat":41.8436851,"lon":15.8574635},{"istat":"71010","nome":"Carapelle","slug":"carapelle","lat":41.3653134,"lon":15.6936756},{"istat":"71009","nome":"Candela","slug":"candela","lat":41.137925,"lon":15.514654}]